{"schema":"zzx-bitnodes-map-counties-v1","generated_at":"2026-06-05T04:18:03+00:00","total_points":1573,"county_count":65,"counties":{"US:US:US:UNKNOWN:US:US:UNKNOWN:Unknown":{"id":"US:US:US:UNKNOWN:US:US:UNKNOWN:Unknown","country_code":"US","territory_code":"US:US:UNKNOWN","county_code":"US:US:UNKNOWN:Unknown","county_name":"US:US:UNKNOWN:Unknown","color":"#8c927e","point_count":542,"network_counts":{"ipv4":542},"status_counts":{"duplicate-location":402,"reachable-24h":2,"reachable-now":138},"centroid":{"latitude":38.88117158671587,"longitude":-101.91674852398523,"south":25.7617,"north":59.6463,"west":-151.536,"east":-67.9258}},"DE:DE:DE:UNKNOWN:DE:DE:UNKNOWN:Unknown":{"id":"DE:DE:DE:UNKNOWN:DE:DE:UNKNOWN:Unknown","country_code":"DE","territory_code":"DE:DE:UNKNOWN","county_code":"DE:DE:UNKNOWN:Unknown","county_name":"DE:DE:UNKNOWN:Unknown","color":"#8c927e","point_count":355,"network_counts":{"ipv4":355},"status_counts":{"duplicate-location":330,"reachable-now":25},"centroid":{"latitude":50.22421126760564,"longitude":8.888219746478875,"south":48.1046,"north":54.0792,"west":6.88723,"east":13.405}},"NL:NL:NL:UNKNOWN:NL:NL:UNKNOWN:Unknown":{"id":"NL:NL:NL:UNKNOWN:NL:NL:UNKNOWN:Unknown","country_code":"NL","territory_code":"NL:NL:UNKNOWN","county_code":"NL:NL:UNKNOWN:Unknown","county_name":"NL:NL:UNKNOWN:Unknown","color":"#8c927e","point_count":96,"network_counts":{"ipv4":96},"status_counts":{"duplicate-location":80,"reachable-now":16},"centroid":{"latitude":52.35064583333334,"longitude":4.9278132291666665,"south":51.36,"north":53.2194,"west":4.20803,"east":6.58791}},"FR:FR:FR:UNKNOWN:FR:FR:UNKNOWN:Unknown":{"id":"FR:FR:FR:UNKNOWN:FR:FR:UNKNOWN:Unknown","country_code":"FR","territory_code":"FR:FR:UNKNOWN","county_code":"FR:FR:UNKNOWN:Unknown","county_name":"FR:FR:UNKNOWN:Unknown","color":"#8c927e","point_count":93,"network_counts":{"ipv4":93},"status_counts":{"duplicate-location":84,"reachable-now":9},"centroid":{"latitude":48.808819354838704,"longitude":2.348495258064516,"south":44.6442,"north":50.7012,"west":-0.9784100000000001,"east":4.83566}},"CA:CA:CA:UNKNOWN:CA:CA:UNKNOWN:Unknown":{"id":"CA:CA:CA:UNKNOWN:CA:CA:UNKNOWN:Unknown","country_code":"CA","territory_code":"CA:CA:UNKNOWN","county_code":"CA:CA:UNKNOWN:Unknown","county_name":"CA:CA:UNKNOWN:Unknown","color":"#8c927e","point_count":88,"network_counts":{"ipv4":88},"status_counts":{"duplicate-location":62,"reachable-now":26},"centroid":{"latitude":44.63643522727273,"longitude":-82.505025,"south":42.3001,"north":53.5461,"west":-124.806,"east":-52.8814}},"GB:GB:GB:UNKNOWN:GB:GB:UNKNOWN:Unknown":{"id":"GB:GB:GB:UNKNOWN:GB:GB:UNKNOWN:Unknown","country_code":"GB","territory_code":"GB:GB:UNKNOWN","county_code":"GB:GB:UNKNOWN:Unknown","county_name":"GB:GB:UNKNOWN:Unknown","color":"#8c927e","point_count":69,"network_counts":{"ipv4":69},"status_counts":{"duplicate-location":50,"reachable-24h":2,"reachable-now":17},"centroid":{"latitude":51.69515217391304,"longitude":-0.6441055797101449,"south":50.722,"north":54.5973,"west":-5.9301200000000005,"east":0.01948}},"SG:SG:SG:UNKNOWN:SG:SG:UNKNOWN:Unknown":{"id":"SG:SG:SG:UNKNOWN:SG:SG:UNKNOWN:Unknown","country_code":"SG","territory_code":"SG:SG:UNKNOWN","county_code":"SG:SG:UNKNOWN:Unknown","county_name":"SG:SG:UNKNOWN:Unknown","color":"#8c927e","point_count":39,"network_counts":{"ipv4":39},"status_counts":{"duplicate-location":34,"reachable-now":5},"centroid":{"latitude":1.3510820512820512,"longitude":103.81894871794871,"south":1.27994,"north":1.43333,"west":103.695,"east":103.894}},"AU:AU:AU:UNKNOWN:AU:AU:UNKNOWN:Unknown":{"id":"AU:AU:AU:UNKNOWN:AU:AU:UNKNOWN:Unknown","country_code":"AU","territory_code":"AU:AU:UNKNOWN","county_code":"AU:AU:UNKNOWN:Unknown","county_name":"AU:AU:UNKNOWN:Unknown","color":"#8c927e","point_count":31,"network_counts":{"ipv4":31},"status_counts":{"duplicate-location":23,"reachable-now":8},"centroid":{"latitude":-34.420670967741934,"longitude":148.05770967741935,"south":-38.1333,"north":-27.4558,"west":115.945,"east":153.559}},"JP:JP:JP:UNKNOWN:JP:JP:UNKNOWN:Unknown":{"id":"JP:JP:JP:UNKNOWN:JP:JP:UNKNOWN:Unknown","country_code":"JP","territory_code":"JP:JP:UNKNOWN","county_code":"JP:JP:UNKNOWN:Unknown","county_name":"JP:JP:UNKNOWN:Unknown","color":"#8c927e","point_count":28,"network_counts":{"ipv4":28},"status_counts":{"duplicate-location":24,"reachable-now":4},"centroid":{"latitude":35.18419285714286,"longitude":137.59528571428572,"south":34.6931,"north":35.6916,"west":135.494,"east":139.769}},"CH:CH:CH:UNKNOWN:CH:CH:UNKNOWN:Unknown":{"id":"CH:CH:CH:UNKNOWN:CH:CH:UNKNOWN:Unknown","country_code":"CH","territory_code":"CH:CH:UNKNOWN","county_code":"CH:CH:UNKNOWN:Unknown","county_name":"CH:CH:UNKNOWN:Unknown","color":"#8c927e","point_count":19,"network_counts":{"ipv4":19},"status_counts":{"duplicate-location":2,"reachable-now":17},"centroid":{"latitude":47.10733684210526,"longitude":7.904095789473684,"south":46.516,"north":47.5578,"west":6.58832,"east":9.83723}},"RU:RU:RU:UNKNOWN:RU:RU:UNKNOWN:Unknown":{"id":"RU:RU:RU:UNKNOWN:RU:RU:UNKNOWN:Unknown","country_code":"RU","territory_code":"RU:RU:UNKNOWN","county_code":"RU:RU:UNKNOWN:Unknown","county_name":"RU:RU:UNKNOWN:Unknown","color":"#8c927e","point_count":17,"network_counts":{"ipv4":17},"status_counts":{"duplicate-location":5,"reachable-now":12},"centroid":{"latitude":54.882152941176464,"longitude":42.15532352941176,"south":43.0327,"north":60.032,"west":30.285,"east":104.289}},"FI:FI:FI:UNKNOWN:FI:FI:UNKNOWN:Unknown":{"id":"FI:FI:FI:UNKNOWN:FI:FI:UNKNOWN:Unknown","country_code":"FI","territory_code":"FI:FI:UNKNOWN","county_code":"FI:FI:UNKNOWN:Unknown","county_name":"FI:FI:UNKNOWN:Unknown","color":"#8c927e","point_count":16,"network_counts":{"ipv4":16},"status_counts":{"duplicate-location":12,"reachable-now":4},"centroid":{"latitude":60.6094875,"longitude":24.893362500000002,"south":60.1699,"north":64.2667,"west":23.48,"east":25.7209}},"ES:ES:ES:UNKNOWN:ES:ES:UNKNOWN:Unknown":{"id":"ES:ES:ES:UNKNOWN:ES:ES:UNKNOWN:Unknown","country_code":"ES","territory_code":"ES:ES:UNKNOWN","county_code":"ES:ES:UNKNOWN:Unknown","county_name":"ES:ES:UNKNOWN:Unknown","color":"#8c927e","point_count":13,"network_counts":{"ipv4":13},"status_counts":{"reachable-now":13},"centroid":{"latitude":40.66344615384616,"longitude":-2.6550753846153845,"south":37.2346,"north":43.5547,"west":-6.89471,"east":2.8126700000000002}},"BR:BR:BR:UNKNOWN:BR:BR:UNKNOWN:Unknown":{"id":"BR:BR:BR:UNKNOWN:BR:BR:UNKNOWN:Unknown","country_code":"BR","territory_code":"BR:BR:UNKNOWN","county_code":"BR:BR:UNKNOWN:Unknown","county_name":"BR:BR:UNKNOWN:Unknown","color":"#8c927e","point_count":12,"network_counts":{"ipv4":12},"status_counts":{"duplicate-location":2,"reachable-now":10},"centroid":{"latitude":-24.180066666666665,"longitude":-48.635774999999995,"south":-29.9178,"north":-15.7941,"west":-51.1836,"east":-46.6228}},"SE:SE:SE:UNKNOWN:SE:SE:UNKNOWN:Unknown":{"id":"SE:SE:SE:UNKNOWN:SE:SE:UNKNOWN:Unknown","country_code":"SE","territory_code":"SE:SE:UNKNOWN","county_code":"SE:SE:UNKNOWN:Unknown","county_name":"SE:SE:UNKNOWN:Unknown","color":"#8c927e","point_count":11,"network_counts":{"ipv4":11},"status_counts":{"duplicate-location":5,"reachable-now":6},"centroid":{"latitude":59.02302727272727,"longitude":16.9713,"south":57.7072,"north":59.428,"west":11.9668,"east":18.2276}},"AT:AT:AT:UNKNOWN:AT:AT:UNKNOWN:Unknown":{"id":"AT:AT:AT:UNKNOWN:AT:AT:UNKNOWN:Unknown","country_code":"AT","territory_code":"AT:AT:UNKNOWN","county_code":"AT:AT:UNKNOWN:Unknown","county_name":"AT:AT:UNKNOWN:Unknown","color":"#8c927e","point_count":10,"network_counts":{"ipv4":10},"status_counts":{"reachable-now":10},"centroid":{"latitude":48.00443,"longitude":14.96456,"south":47.2663,"north":48.5156,"west":11.4348,"east":16.4736}},"IT:IT:IT:UNKNOWN:IT:IT:UNKNOWN:Unknown":{"id":"IT:IT:IT:UNKNOWN:IT:IT:UNKNOWN:Unknown","country_code":"IT","territory_code":"IT:IT:UNKNOWN","county_code":"IT:IT:UNKNOWN:Unknown","county_name":"IT:IT:UNKNOWN:Unknown","color":"#8c927e","point_count":9,"network_counts":{"ipv4":9},"status_counts":{"reachable-now":9},"centroid":{"latitude":44.23771111111111,"longitude":11.430292222222223,"south":41.9453,"north":46.5437,"west":9.24183,"east":13.5538}},"CN:CN:CN:UNKNOWN:CN:CN:UNKNOWN:Unknown":{"id":"CN:CN:CN:UNKNOWN:CN:CN:UNKNOWN:Unknown","country_code":"CN","territory_code":"CN:CN:UNKNOWN","county_code":"CN:CN:UNKNOWN:Unknown","county_name":"CN:CN:UNKNOWN:Unknown","color":"#8c927e","point_count":7,"network_counts":{"ipv4":7},"status_counts":{"duplicate-location":3,"reachable-now":4},"centroid":{"latitude":28.965028571428572,"longitude":115.44214285714285,"south":23.1291,"north":39.9155,"west":113.264,"east":121.474}},"KR:KR:KR:UNKNOWN:KR:KR:UNKNOWN:Unknown":{"id":"KR:KR:KR:UNKNOWN:KR:KR:UNKNOWN:Unknown","country_code":"KR","territory_code":"KR:KR:UNKNOWN","county_code":"KR:KR:UNKNOWN:Unknown","county_name":"KR:KR:UNKNOWN:Unknown","color":"#8c927e","point_count":7,"network_counts":{"ipv4":7},"status_counts":{"duplicate-location":3,"reachable-now":4},"centroid":{"latitude":37.16705714285714,"longitude":127.25128571428571,"south":35.1298,"north":37.5614,"west":126.97,"east":128.737}},"ZA:ZA:ZA:UNKNOWN:ZA:ZA:UNKNOWN:Unknown":{"id":"ZA:ZA:ZA:UNKNOWN:ZA:ZA:UNKNOWN:Unknown","country_code":"ZA","territory_code":"ZA:ZA:UNKNOWN","county_code":"ZA:ZA:UNKNOWN:Unknown","county_name":"ZA:ZA:UNKNOWN:Unknown","color":"#8c927e","point_count":7,"network_counts":{"ipv4":7},"status_counts":{"duplicate-location":2,"reachable-now":5},"centroid":{"latitude":-30.630442857142857,"longitude":22.587457142857144,"south":-34.097,"north":-25.8589,"west":18.4231,"east":28.1858}},"PL:PL:PL:UNKNOWN:PL:PL:UNKNOWN:Unknown":{"id":"PL:PL:PL:UNKNOWN:PL:PL:UNKNOWN:Unknown","country_code":"PL","territory_code":"PL:PL:UNKNOWN","county_code":"PL:PL:UNKNOWN:Unknown","county_name":"PL:PL:UNKNOWN:Unknown","color":"#8c927e","point_count":6,"network_counts":{"ipv4":6},"status_counts":{"reachable-now":6},"centroid":{"latitude":51.244483333333335,"longitude":20.271333333333335,"south":50.0881,"north":52.3038,"west":18.8615,"east":21.1602}},"BE:BE:BE:UNKNOWN:BE:BE:UNKNOWN:Unknown":{"id":"BE:BE:BE:UNKNOWN:BE:BE:UNKNOWN:Unknown","country_code":"BE","territory_code":"BE:BE:UNKNOWN","county_code":"BE:BE:UNKNOWN:Unknown","county_name":"BE:BE:UNKNOWN:Unknown","color":"#8c927e","point_count":5,"network_counts":{"ipv4":5},"status_counts":{"duplicate-location":2,"reachable-now":3},"centroid":{"latitude":50.88174,"longitude":4.379816,"south":50.8015,"north":51.0353,"west":4.1536,"east":4.48322}},"MX:MX:MX:UNKNOWN:MX:MX:UNKNOWN:Unknown":{"id":"MX:MX:MX:UNKNOWN:MX:MX:UNKNOWN:Unknown","country_code":"MX","territory_code":"MX:MX:UNKNOWN","county_code":"MX:MX:UNKNOWN:Unknown","county_name":"MX:MX:UNKNOWN:Unknown","color":"#8c927e","point_count":5,"network_counts":{"ipv4":5},"status_counts":{"reachable-now":5},"centroid":{"latitude":23.01542,"longitude":-101.83812,"south":19.6325,"north":28.6353,"west":-106.089,"east":-99.1386}},"NZ:NZ:NZ:UNKNOWN:NZ:NZ:UNKNOWN:Unknown":{"id":"NZ:NZ:NZ:UNKNOWN:NZ:NZ:UNKNOWN:Unknown","country_code":"NZ","territory_code":"NZ:NZ:UNKNOWN","county_code":"NZ:NZ:UNKNOWN:Unknown","county_name":"NZ:NZ:UNKNOWN:Unknown","color":"#8c927e","point_count":5,"network_counts":{"ipv4":5},"status_counts":{"reachable-now":5},"centroid":{"latitude":-36.8643,"longitude":174.7638,"south":-36.9182,"north":-36.8486,"west":174.754,"east":174.78}},"RO:RO:RO:UNKNOWN:RO:RO:UNKNOWN:Unknown":{"id":"RO:RO:RO:UNKNOWN:RO:RO:UNKNOWN:Unknown","country_code":"RO","territory_code":"RO:RO:UNKNOWN","county_code":"RO:RO:UNKNOWN:Unknown","county_name":"RO:RO:UNKNOWN:Unknown","color":"#8c927e","point_count":5,"network_counts":{"ipv4":5},"status_counts":{"duplicate-location":2,"reachable-now":3},"centroid":{"latitude":45.80046,"longitude":25.361739999999998,"south":44.4268,"north":46.9311,"west":23.6928,"east":26.4088}},"TH:TH:TH:UNKNOWN:TH:TH:UNKNOWN:Unknown":{"id":"TH:TH:TH:UNKNOWN:TH:TH:UNKNOWN:Unknown","country_code":"TH","territory_code":"TH:TH:UNKNOWN","county_code":"TH:TH:UNKNOWN:Unknown","county_name":"TH:TH:UNKNOWN:Unknown","color":"#8c927e","point_count":5,"network_counts":{"ipv4":5},"status_counts":{"reachable-now":5},"centroid":{"latitude":13.633702,"longitude":100.20072,"south":8.56781,"north":18.1459,"west":99.2476,"east":100.555}},"CZ:CZ:CZ:UNKNOWN:CZ:CZ:UNKNOWN:Unknown":{"id":"CZ:CZ:CZ:UNKNOWN:CZ:CZ:UNKNOWN:Unknown","country_code":"CZ","territory_code":"CZ:CZ:UNKNOWN","county_code":"CZ:CZ:UNKNOWN:Unknown","county_name":"CZ:CZ:UNKNOWN:Unknown","color":"#8c927e","point_count":4,"network_counts":{"ipv4":4},"status_counts":{"reachable-now":4},"centroid":{"latitude":49.875375,"longitude":14.827950000000001,"south":49.572,"north":50.1335,"west":13.2786,"east":17.1795}},"IE:IE:IE:UNKNOWN:IE:IE:UNKNOWN:Unknown":{"id":"IE:IE:IE:UNKNOWN:IE:IE:UNKNOWN:Unknown","country_code":"IE","territory_code":"IE:IE:UNKNOWN","county_code":"IE:IE:UNKNOWN:Unknown","county_name":"IE:IE:UNKNOWN:Unknown","color":"#8c927e","point_count":4,"network_counts":{"ipv4":4},"status_counts":{"reachable-now":4},"centroid":{"latitude":53.120575,"longitude":-6.9702175,"south":52.3342,"north":53.4597,"west":-8.945,"east":-6.21806}},"PT:PT:PT:UNKNOWN:PT:PT:UNKNOWN:Unknown":{"id":"PT:PT:PT:UNKNOWN:PT:PT:UNKNOWN:Unknown","country_code":"PT","territory_code":"PT:PT:UNKNOWN","county_code":"PT:PT:UNKNOWN:Unknown","county_name":"PT:PT:UNKNOWN:Unknown","color":"#8c927e","point_count":4,"network_counts":{"ipv4":4},"status_counts":{"reachable-now":4},"centroid":{"latitude":39.429625,"longitude":-9.1213675,"south":38.6911,"north":41.1485,"west":-9.3643,"east":-8.61097}},"AE:AE:AE:UNKNOWN:AE:AE:UNKNOWN:Unknown":{"id":"AE:AE:AE:UNKNOWN:AE:AE:UNKNOWN:Unknown","country_code":"AE","territory_code":"AE:AE:UNKNOWN","county_code":"AE:AE:UNKNOWN:Unknown","county_name":"AE:AE:UNKNOWN:Unknown","color":"#8c927e","point_count":3,"network_counts":{"ipv4":3},"status_counts":{"reachable-now":3},"centroid":{"latitude":25.1572,"longitude":55.30303333333333,"south":24.3479,"north":25.7895,"west":54.5537,"east":55.9432}},"AR:AR:AR:UNKNOWN:AR:AR:UNKNOWN:Unknown":{"id":"AR:AR:AR:UNKNOWN:AR:AR:UNKNOWN:Unknown","country_code":"AR","territory_code":"AR:AR:UNKNOWN","county_code":"AR:AR:UNKNOWN:Unknown","county_name":"AR:AR:UNKNOWN:Unknown","color":"#8c927e","point_count":3,"network_counts":{"ipv4":3},"status_counts":{"reachable-now":3},"centroid":{"latitude":-35.434066666666666,"longitude":-57.927,"south":-37.1111,"north":-34.5779,"west":-58.5386,"east":-56.8652}},"HK:HK:HK:UNKNOWN:HK:HK:UNKNOWN:Unknown":{"id":"HK:HK:HK:UNKNOWN:HK:HK:UNKNOWN:Unknown","country_code":"HK","territory_code":"HK:HK:UNKNOWN","county_code":"HK:HK:UNKNOWN:Unknown","county_name":"HK:HK:UNKNOWN:Unknown","color":"#8c927e","point_count":3,"network_counts":{"ipv4":3},"status_counts":{"reachable-now":3},"centroid":{"latitude":22.342233333333336,"longitude":114.14999999999999,"south":22.3193,"north":22.3702,"west":114.13,"east":114.169}},"HU:HU:HU:UNKNOWN:HU:HU:UNKNOWN:Unknown":{"id":"HU:HU:HU:UNKNOWN:HU:HU:UNKNOWN:Unknown","country_code":"HU","territory_code":"HU:HU:UNKNOWN","county_code":"HU:HU:UNKNOWN:Unknown","county_name":"HU:HU:UNKNOWN:Unknown","color":"#8c927e","point_count":3,"network_counts":{"ipv4":3},"status_counts":{"reachable-now":3},"centroid":{"latitude":47.6441,"longitude":19.648999999999997,"south":47.3545,"north":48.1033,"west":19.0707,"east":20.7781}},"NO:NO:NO:UNKNOWN:NO:NO:UNKNOWN:Unknown":{"id":"NO:NO:NO:UNKNOWN:NO:NO:UNKNOWN:Unknown","country_code":"NO","territory_code":"NO:NO:UNKNOWN","county_code":"NO:NO:UNKNOWN:Unknown","county_name":"NO:NO:UNKNOWN:Unknown","color":"#8c927e","point_count":3,"network_counts":{"ipv4":3},"status_counts":{"duplicate-location":2,"reachable-now":1},"centroid":{"latitude":60.7369,"longitude":9.337846666666668,"south":59.9122,"north":62.3863,"west":6.55094,"east":10.731300000000001}},"SI:SI:SI:UNKNOWN:SI:SI:UNKNOWN:Unknown":{"id":"SI:SI:SI:UNKNOWN:SI:SI:UNKNOWN:Unknown","country_code":"SI","territory_code":"SI:SI:UNKNOWN","county_code":"SI:SI:UNKNOWN:Unknown","county_name":"SI:SI:UNKNOWN:Unknown","color":"#8c927e","point_count":3,"network_counts":{"ipv4":3},"status_counts":{"reachable-now":3},"centroid":{"latitude":46.05276666666666,"longitude":14.373666666666667,"south":46.044,"north":46.0572,"west":14.1074,"east":14.5068}},"SK:SK:SK:UNKNOWN:SK:SK:UNKNOWN:Unknown":{"id":"SK:SK:SK:UNKNOWN:SK:SK:UNKNOWN:Unknown","country_code":"SK","territory_code":"SK:SK:UNKNOWN","county_code":"SK:SK:UNKNOWN:Unknown","county_name":"SK:SK:UNKNOWN:Unknown","color":"#8c927e","point_count":3,"network_counts":{"ipv4":3},"status_counts":{"reachable-now":3},"centroid":{"latitude":48.23753333333334,"longitude":19.02633333333333,"south":47.9536,"north":48.6357,"west":17.1287,"east":21.2988}},"TW:TW:TW:UNKNOWN:TW:TW:UNKNOWN:Unknown":{"id":"TW:TW:TW:UNKNOWN:TW:TW:UNKNOWN:Unknown","country_code":"TW","territory_code":"TW:TW:UNKNOWN","county_code":"TW:TW:UNKNOWN:Unknown","county_name":"TW:TW:UNKNOWN:Unknown","color":"#8c927e","point_count":3,"network_counts":{"ipv4":3},"status_counts":{"duplicate-location":2,"reachable-now":1},"centroid":{"latitude":25.048833333333334,"longitude":121.45533333333333,"south":25.0334,"north":25.0797,"west":121.234,"east":121.566}},"BG:BG:BG:UNKNOWN:BG:BG:UNKNOWN:Unknown":{"id":"BG:BG:BG:UNKNOWN:BG:BG:UNKNOWN:Unknown","country_code":"BG","territory_code":"BG:BG:UNKNOWN","county_code":"BG:BG:UNKNOWN:Unknown","county_name":"BG:BG:UNKNOWN:Unknown","color":"#8c927e","point_count":2,"network_counts":{"ipv4":2},"status_counts":{"reachable-now":2},"centroid":{"latitude":42.42,"longitude":25.5378,"south":42.1539,"north":42.6861,"west":24.75,"east":26.3256}},"CO:CO:CO:UNKNOWN:CO:CO:UNKNOWN:Unknown":{"id":"CO:CO:CO:UNKNOWN:CO:CO:UNKNOWN:Unknown","country_code":"CO","territory_code":"CO:CO:UNKNOWN","county_code":"CO:CO:UNKNOWN:Unknown","county_name":"CO:CO:UNKNOWN:Unknown","color":"#8c927e","point_count":2,"network_counts":{"ipv4":2},"status_counts":{"reachable-now":2},"centroid":{"latitude":5.57061,"longitude":-74.75235,"south":4.965310000000001,"north":6.17591,"west":-75.5917,"east":-73.913}},"GR:GR:GR:UNKNOWN:GR:GR:UNKNOWN:Unknown":{"id":"GR:GR:GR:UNKNOWN:GR:GR:UNKNOWN:Unknown","country_code":"GR","territory_code":"GR:GR:UNKNOWN","county_code":"GR:GR:UNKNOWN:Unknown","county_name":"GR:GR:UNKNOWN:Unknown","color":"#8c927e","point_count":2,"network_counts":{"ipv4":2},"status_counts":{"reachable-now":2},"centroid":{"latitude":37.96835,"longitude":23.76105,"south":37.961,"north":37.9757,"west":23.753,"east":23.7691}},"IL:IL:IL:UNKNOWN:IL:IL:UNKNOWN:Unknown":{"id":"IL:IL:IL:UNKNOWN:IL:IL:UNKNOWN:Unknown","country_code":"IL","territory_code":"IL:IL:UNKNOWN","county_code":"IL:IL:UNKNOWN:Unknown","county_name":"IL:IL:UNKNOWN:Unknown","color":"#8c927e","point_count":2,"network_counts":{"ipv4":2},"status_counts":{"reachable-24h":1,"reachable-now":1},"centroid":{"latitude":32.092600000000004,"longitude":34.9075,"south":32.0773,"north":32.1079,"west":34.8492,"east":34.9658}},"IN:IN:IN:UNKNOWN:IN:IN:UNKNOWN:Unknown":{"id":"IN:IN:IN:UNKNOWN:IN:IN:UNKNOWN:Unknown","country_code":"IN","territory_code":"IN:IN:UNKNOWN","county_code":"IN:IN:UNKNOWN:Unknown","county_name":"IN:IN:UNKNOWN:Unknown","color":"#8c927e","point_count":2,"network_counts":{"ipv4":2},"status_counts":{"reachable-now":2},"centroid":{"latitude":16.0238,"longitude":75.23615000000001,"south":12.9716,"north":19.076,"west":72.8777,"east":77.5946}},"LT:LT:LT:UNKNOWN:LT:LT:UNKNOWN:Unknown":{"id":"LT:LT:LT:UNKNOWN:LT:LT:UNKNOWN:Unknown","country_code":"LT","territory_code":"LT:LT:UNKNOWN","county_code":"LT:LT:UNKNOWN:Unknown","county_name":"LT:LT:UNKNOWN:Unknown","color":"#8c927e","point_count":2,"network_counts":{"ipv4":2},"status_counts":{"reachable-now":2},"centroid":{"latitude":55.3041,"longitude":24.2869,"south":54.6872,"north":55.921,"west":23.2941,"east":25.2797}},"MT:MT:MT:UNKNOWN:MT:MT:UNKNOWN:Unknown":{"id":"MT:MT:MT:UNKNOWN:MT:MT:UNKNOWN:Unknown","country_code":"MT","territory_code":"MT:MT:UNKNOWN","county_code":"MT:MT:UNKNOWN:Unknown","county_name":"MT:MT:UNKNOWN:Unknown","color":"#8c927e","point_count":2,"network_counts":{"ipv4":2},"status_counts":{"reachable-now":2},"centroid":{"latitude":35.896100000000004,"longitude":14.50385,"south":35.893,"north":35.8992,"west":14.4936,"east":14.5141}},"TR:TR:TR:UNKNOWN:TR:TR:UNKNOWN:Unknown":{"id":"TR:TR:TR:UNKNOWN:TR:TR:UNKNOWN:Unknown","country_code":"TR","territory_code":"TR:TR:UNKNOWN","county_code":"TR:TR:UNKNOWN:Unknown","county_name":"TR:TR:UNKNOWN:Unknown","color":"#8c927e","point_count":2,"network_counts":{"ipv4":2},"status_counts":{"duplicate-location":2},"centroid":{"latitude":41.0016,"longitude":29.1418,"south":41.0016,"north":41.0016,"west":29.1418,"east":29.1418}},"UY:UY:UY:UNKNOWN:UY:UY:UNKNOWN:Unknown":{"id":"UY:UY:UY:UNKNOWN:UY:UY:UNKNOWN:Unknown","country_code":"UY","territory_code":"UY:UY:UNKNOWN","county_code":"UY:UY:UNKNOWN:Unknown","county_name":"UY:UY:UNKNOWN:Unknown","color":"#8c927e","point_count":2,"network_counts":{"ipv4":2},"status_counts":{"reachable-now":2},"centroid":{"latitude":-34.9022,"longitude":-56.17635,"south":-34.9033,"north":-34.9011,"west":-56.1882,"east":-56.1645}},"BY:BY:BY:UNKNOWN:BY:BY:UNKNOWN:Unknown":{"id":"BY:BY:BY:UNKNOWN:BY:BY:UNKNOWN:Unknown","country_code":"BY","territory_code":"BY:BY:UNKNOWN","county_code":"BY:BY:UNKNOWN:Unknown","county_name":"BY:BY:UNKNOWN:Unknown","color":"#8c927e","point_count":1,"network_counts":{"ipv4":1},"status_counts":{"reachable-now":1},"centroid":{"latitude":52.4313,"longitude":30.9937,"south":52.4313,"north":52.4313,"west":30.9937,"east":30.9937}},"CL:CL:CL:UNKNOWN:CL:CL:UNKNOWN:Unknown":{"id":"CL:CL:CL:UNKNOWN:CL:CL:UNKNOWN:Unknown","country_code":"CL","territory_code":"CL:CL:UNKNOWN","county_code":"CL:CL:UNKNOWN:Unknown","county_name":"CL:CL:UNKNOWN:Unknown","color":"#8c927e","point_count":1,"network_counts":{"ipv4":1},"status_counts":{"reachable-now":1},"centroid":{"latitude":-33.4311,"longitude":-70.6045,"south":-33.4311,"north":-33.4311,"west":-70.6045,"east":-70.6045}},"DK:DK:DK:UNKNOWN:DK:DK:UNKNOWN:Unknown":{"id":"DK:DK:DK:UNKNOWN:DK:DK:UNKNOWN:Unknown","country_code":"DK","territory_code":"DK:DK:UNKNOWN","county_code":"DK:DK:UNKNOWN:Unknown","county_name":"DK:DK:UNKNOWN:Unknown","color":"#8c927e","point_count":1,"network_counts":{"ipv4":1},"status_counts":{"reachable-now":1},"centroid":{"latitude":55.8396,"longitude":12.069,"south":55.8396,"north":55.8396,"west":12.069,"east":12.069}},"DZ:DZ:DZ:UNKNOWN:DZ:DZ:UNKNOWN:Unknown":{"id":"DZ:DZ:DZ:UNKNOWN:DZ:DZ:UNKNOWN:Unknown","country_code":"DZ","territory_code":"DZ:DZ:UNKNOWN","county_code":"DZ:DZ:UNKNOWN:Unknown","county_name":"DZ:DZ:UNKNOWN:Unknown","color":"#8c927e","point_count":1,"network_counts":{"ipv4":1},"status_counts":{"reachable-now":1},"centroid":{"latitude":36.1898,"longitude":5.4108,"south":36.1898,"north":36.1898,"west":5.4108,"east":5.4108}},"EE:EE:EE:UNKNOWN:EE:EE:UNKNOWN:Unknown":{"id":"EE:EE:EE:UNKNOWN:EE:EE:UNKNOWN:Unknown","country_code":"EE","territory_code":"EE:EE:UNKNOWN","county_code":"EE:EE:UNKNOWN:Unknown","county_name":"EE:EE:UNKNOWN:Unknown","color":"#8c927e","point_count":1,"network_counts":{"ipv4":1},"status_counts":{"reachable-now":1},"centroid":{"latitude":59.437,"longitude":24.7536,"south":59.437,"north":59.437,"west":24.7536,"east":24.7536}},"FO:FO:FO:UNKNOWN:FO:FO:UNKNOWN:Unknown":{"id":"FO:FO:FO:UNKNOWN:FO:FO:UNKNOWN:Unknown","country_code":"FO","territory_code":"FO:FO:UNKNOWN","county_code":"FO:FO:UNKNOWN:Unknown","county_name":"FO:FO:UNKNOWN:Unknown","color":"#8c927e","point_count":1,"network_counts":{"ipv4":1},"status_counts":{"reachable-now":1},"centroid":{"latitude":62.0107,"longitude":-6.77409,"south":62.0107,"north":62.0107,"west":-6.77409,"east":-6.77409}},"HR:HR:HR:UNKNOWN:HR:HR:UNKNOWN:Unknown":{"id":"HR:HR:HR:UNKNOWN:HR:HR:UNKNOWN:Unknown","country_code":"HR","territory_code":"HR:HR:UNKNOWN","county_code":"HR:HR:UNKNOWN:Unknown","county_name":"HR:HR:UNKNOWN:Unknown","color":"#8c927e","point_count":1,"network_counts":{"ipv4":1},"status_counts":{"reachable-now":1},"centroid":{"latitude":42.9253,"longitude":17.4283,"south":42.9253,"north":42.9253,"west":17.4283,"east":17.4283}},"ID:ID:ID:UNKNOWN:ID:ID:UNKNOWN:Unknown":{"id":"ID:ID:ID:UNKNOWN:ID:ID:UNKNOWN:Unknown","country_code":"ID","territory_code":"ID:ID:UNKNOWN","county_code":"ID:ID:UNKNOWN:Unknown","county_name":"ID:ID:UNKNOWN:Unknown","color":"#8c927e","point_count":1,"network_counts":{"ipv4":1},"status_counts":{"reachable-now":1},"centroid":{"latitude":-6.20876,"longitude":106.846,"south":-6.20876,"north":-6.20876,"west":106.846,"east":106.846}},"IS:IS:IS:UNKNOWN:IS:IS:UNKNOWN:Unknown":{"id":"IS:IS:IS:UNKNOWN:IS:IS:UNKNOWN:Unknown","country_code":"IS","territory_code":"IS:IS:UNKNOWN","county_code":"IS:IS:UNKNOWN:Unknown","county_name":"IS:IS:UNKNOWN:Unknown","color":"#8c927e","point_count":1,"network_counts":{"ipv4":1},"status_counts":{"reachable-now":1},"centroid":{"latitude":64.1466,"longitude":-21.9426,"south":64.1466,"north":64.1466,"west":-21.9426,"east":-21.9426}},"KW:KW:KW:UNKNOWN:KW:KW:UNKNOWN:Unknown":{"id":"KW:KW:KW:UNKNOWN:KW:KW:UNKNOWN:Unknown","country_code":"KW","territory_code":"KW:KW:UNKNOWN","county_code":"KW:KW:UNKNOWN:Unknown","county_name":"KW:KW:UNKNOWN:Unknown","color":"#8c927e","point_count":1,"network_counts":{"ipv4":1},"status_counts":{"reachable-now":1},"centroid":{"latitude":29.3878,"longitude":47.9998,"south":29.3878,"north":29.3878,"west":47.9998,"east":47.9998}},"KZ:KZ:KZ:UNKNOWN:KZ:KZ:UNKNOWN:Unknown":{"id":"KZ:KZ:KZ:UNKNOWN:KZ:KZ:UNKNOWN:Unknown","country_code":"KZ","territory_code":"KZ:KZ:UNKNOWN","county_code":"KZ:KZ:UNKNOWN:Unknown","county_name":"KZ:KZ:UNKNOWN:Unknown","color":"#8c927e","point_count":1,"network_counts":{"ipv4":1},"status_counts":{"reachable-now":1},"centroid":{"latitude":43.2298,"longitude":76.9487,"south":43.2298,"north":43.2298,"west":76.9487,"east":76.9487}},"LI:LI:LI:UNKNOWN:LI:LI:UNKNOWN:Unknown":{"id":"LI:LI:LI:UNKNOWN:LI:LI:UNKNOWN:Unknown","country_code":"LI","territory_code":"LI:LI:UNKNOWN","county_code":"LI:LI:UNKNOWN:Unknown","county_name":"LI:LI:UNKNOWN:Unknown","color":"#8c927e","point_count":1,"network_counts":{"ipv4":1},"status_counts":{"reachable-now":1},"centroid":{"latitude":47.1681,"longitude":9.50358,"south":47.1681,"north":47.1681,"west":9.50358,"east":9.50358}},"LU:LU:LU:UNKNOWN:LU:LU:UNKNOWN:Unknown":{"id":"LU:LU:LU:UNKNOWN:LU:LU:UNKNOWN:Unknown","country_code":"LU","territory_code":"LU:LU:UNKNOWN","county_code":"LU:LU:UNKNOWN:Unknown","county_name":"LU:LU:UNKNOWN:Unknown","color":"#8c927e","point_count":1,"network_counts":{"ipv4":1},"status_counts":{"reachable-now":1},"centroid":{"latitude":49.6239,"longitude":6.14944,"south":49.6239,"north":49.6239,"west":6.14944,"east":6.14944}},"MD:MD:MD:UNKNOWN:MD:MD:UNKNOWN:Unknown":{"id":"MD:MD:MD:UNKNOWN:MD:MD:UNKNOWN:Unknown","country_code":"MD","territory_code":"MD:MD:UNKNOWN","county_code":"MD:MD:UNKNOWN:Unknown","county_name":"MD:MD:UNKNOWN:Unknown","color":"#8c927e","point_count":1,"network_counts":{"ipv4":1},"status_counts":{"reachable-now":1},"centroid":{"latitude":46.8482,"longitude":29.5968,"south":46.8482,"north":46.8482,"west":29.5968,"east":29.5968}},"MY:MY:MY:UNKNOWN:MY:MY:UNKNOWN:Unknown":{"id":"MY:MY:MY:UNKNOWN:MY:MY:UNKNOWN:Unknown","country_code":"MY","territory_code":"MY:MY:UNKNOWN","county_code":"MY:MY:UNKNOWN:Unknown","county_name":"MY:MY:UNKNOWN:Unknown","color":"#8c927e","point_count":1,"network_counts":{"ipv4":1},"status_counts":{"reachable-now":1},"centroid":{"latitude":3.15045,"longitude":101.655,"south":3.15045,"north":3.15045,"west":101.655,"east":101.655}},"PR:PR:PR:UNKNOWN:PR:PR:UNKNOWN:Unknown":{"id":"PR:PR:PR:UNKNOWN:PR:PR:UNKNOWN:Unknown","country_code":"PR","territory_code":"PR:PR:UNKNOWN","county_code":"PR:PR:UNKNOWN:Unknown","county_name":"PR:PR:UNKNOWN:Unknown","color":"#8c927e","point_count":1,"network_counts":{"ipv4":1},"status_counts":{"reachable-now":1},"centroid":{"latitude":18.3258,"longitude":-66.4066,"south":18.3258,"north":18.3258,"west":-66.4066,"east":-66.4066}},"RS:RS:RS:UNKNOWN:RS:RS:UNKNOWN:Unknown":{"id":"RS:RS:RS:UNKNOWN:RS:RS:UNKNOWN:Unknown","country_code":"RS","territory_code":"RS:RS:UNKNOWN","county_code":"RS:RS:UNKNOWN:Unknown","county_name":"RS:RS:UNKNOWN:Unknown","color":"#8c927e","point_count":1,"network_counts":{"ipv4":1},"status_counts":{"reachable-24h":1},"centroid":{"latitude":45.2517,"longitude":19.8369,"south":45.2517,"north":45.2517,"west":19.8369,"east":19.8369}},"SA:SA:SA:UNKNOWN:SA:SA:UNKNOWN:Unknown":{"id":"SA:SA:SA:UNKNOWN:SA:SA:UNKNOWN:Unknown","country_code":"SA","territory_code":"SA:SA:UNKNOWN","county_code":"SA:SA:UNKNOWN:Unknown","county_name":"SA:SA:UNKNOWN:Unknown","color":"#8c927e","point_count":1,"network_counts":{"ipv4":1},"status_counts":{"reachable-now":1},"centroid":{"latitude":24.7136,"longitude":46.6753,"south":24.7136,"north":24.7136,"west":46.6753,"east":46.6753}},"VE:VE:VE:UNKNOWN:VE:VE:UNKNOWN:Unknown":{"id":"VE:VE:VE:UNKNOWN:VE:VE:UNKNOWN:Unknown","country_code":"VE","territory_code":"VE:VE:UNKNOWN","county_code":"VE:VE:UNKNOWN:Unknown","county_name":"VE:VE:UNKNOWN:Unknown","color":"#8c927e","point_count":1,"network_counts":{"ipv4":1},"status_counts":{"reachable-now":1},"centroid":{"latitude":10.4958,"longitude":-66.8537,"south":10.4958,"north":10.4958,"west":-66.8537,"east":-66.8537}}}}
